{"assignments":[{"h3":"8860145b59fffff","lat":12.963592603741281,"lng":77.57329905534102,"units":1,"expected_share":0.0051,"top_type":"Chain Snatching","rationale":"106 recent incidents (0.5% of weighted load); recurring Chain Snatching","district":"Bengaluru City","station":"Bengaluru Cantonment PS","label":"Bengaluru Cantonment PS, Bengaluru City"},{"h3":"88618925b7fffff","lat":12.96356404125835,"lng":77.58172203843483,"units":1,"expected_share":0.0046,"top_type":"Phishing / OTP Fraud","rationale":"98 recent incidents (0.5% of weighted load); recurring Phishing / OTP Fraud","district":"Bengaluru City","station":"Bengaluru Lake PS","label":"Bengaluru Lake PS, Bengaluru City"},{"h3":"8860145b49fffff","lat":12.971002514823697,"lng":77.59448385371343,"units":1,"expected_share":0.0046,"top_type":"Online Financial Fraud","rationale":"95 recent incidents (0.5% of weighted load); recurring Online Financial Fraud","district":"Bengaluru City","station":"Bengaluru Lake PS","label":"Bengaluru Lake PS, Bengaluru City"},{"h3":"8860145b41fffff","lat":12.9784984385692,"lng":77.59039730205839,"units":1,"expected_share":0.0045,"top_type":"Online Financial Fraud","rationale":"99 recent incidents (0.5% of weighted load); recurring Online Financial Fraud","district":"Bengaluru City","station":"Bengaluru Cantonment PS","label":"Bengaluru Cantonment PS, Bengaluru City"},{"h3":"88618925b5fffff","lat":12.963535205329856,"lng":77.59014581816211,"units":1,"expected_share":0.0042,"top_type":"Phishing / OTP Fraud","rationale":"103 recent incidents (0.4% of weighted load); recurring Phishing / OTP Fraud","district":"Bengaluru City","station":"Bengaluru Cantonment PS","label":"Bengaluru Cantonment PS, Bengaluru City"},{"h3":"88618925bdfffff","lat":12.956038778798096,"lng":77.59423216594502,"units":1,"expected_share":0.0042,"top_type":"Phishing / OTP Fraud","rationale":"99 recent incidents (0.4% of weighted load); recurring Phishing / OTP Fraud; 45% night-time","district":"Bengaluru City","station":"Bengaluru Industrial Area PS","label":"Bengaluru Industrial Area PS, Bengaluru City"},{"h3":"88618925b3fffff","lat":12.956097152047933,"lng":77.57738503936817,"units":1,"expected_share":0.004,"top_type":"Chain Snatching","rationale":"82 recent incidents (0.4% of weighted load); recurring Chain Snatching; 43% night-time","district":"Bengaluru City","station":"Bengaluru Lake PS","label":"Bengaluru Lake PS, Bengaluru City"},{"h3":"88618925bbfffff","lat":12.948601205513501,"lng":77.58147101247559,"units":1,"expected_share":0.0039,"top_type":"Online Financial Fraud","rationale":"81 recent incidents (0.4% of weighted load); recurring Online Financial Fraud; 48% night-time","district":"Bengaluru City","station":"Bengaluru Lake PS","label":"Bengaluru Lake PS, Bengaluru City"},{"h3":"8860145b45fffff","lat":12.985965945920508,"lng":77.5947355666389,"units":1,"expected_share":0.0037,"top_type":"Online Financial Fraud","rationale":"80 recent incidents (0.4% of weighted load); recurring Online Financial Fraud; 56% night-time","district":"Bengaluru City","station":"Bengaluru East PS","label":"Bengaluru East PS, Bengaluru City"},{"h3":"8861892e93fffff","lat":12.985937751109661,"lng":77.60316119029105,"units":1,"expected_share":0.0036,"top_type":"Online Financial Fraud","rationale":"73 recent incidents (0.4% of weighted load); recurring Online Financial Fraud; 49% night-time","district":"Bengaluru City","station":"Bengaluru Market PS","label":"Bengaluru Market PS, Bengaluru City"},{"h3":"88618925b9fffff","lat":12.948571668200072,"lng":77.58989435939898,"units":1,"expected_share":0.0035,"top_type":"Phishing / OTP Fraud","rationale":"77 recent incidents (0.4% of weighted load); recurring Phishing / OTP Fraud; 52% night-time","district":"Bengaluru City","station":"Bengaluru North PS","label":"Bengaluru North PS, Bengaluru City"},{"h3":"88618925a7fffff","lat":12.970973619072177,"lng":77.60290904439071,"units":1,"expected_share":0.0034,"top_type":"Online Financial Fraud","rationale":"95 recent incidents (0.3% of weighted load); recurring Online Financial Fraud","district":"Bengaluru City","station":"Bengaluru Industrial Area PS","label":"Bengaluru Industrial Area PS, Bengaluru City"},{"h3":"8860145b4bfffff","lat":12.971031136890277,"lng":77.58605945932764,"units":1,"expected_share":0.0034,"top_type":"Online Financial Fraud","rationale":"88 recent incidents (0.3% of weighted load); recurring Online Financial Fraud; 41% night-time","district":"Bengaluru City","station":"Bengaluru Cantonment PS","label":"Bengaluru Cantonment PS, Bengaluru City"},{"h3":"8860145b4dfffff","lat":12.978470030208513,"lng":77.59882231108581,"units":1,"expected_share":0.0034,"top_type":"Online Financial Fraud","rationale":"94 recent incidents (0.3% of weighted load); recurring Online Financial Fraud; 47% night-time","district":"Bengaluru City","station":"Bengaluru City PS","label":"Bengaluru City PS, Bengaluru City"},{"h3":"88618925a1fffff","lat":12.963476712834236,"lng":77.60699576651213,"units":1,"expected_share":0.0034,"top_type":"Online Financial Fraud","rationale":"73 recent incidents (0.3% of weighted load); recurring Online Financial Fraud; 48% night-time","district":"Bengaluru City","station":"Bengaluru East PS","label":"Bengaluru East PS, Bengaluru City"}],"coverage_pct":6.0,"summary":"Allocated 15 patrol unit(s) to the top 15 hex(es), covering ~6.0% of the recency/severity-weighted incident load across 6783 active hex(es). Place-based allocation only."}